{"geocoded_waypoints": [{"geocoder_status": "OK", "place_id": "ChIJGyE0L4mYfDUR0w1X-7KduBc", "types": ["street_address"]}, {"geocoder_status": "OK", "place_id": "ChIJn9YIK-yTaDURSa3N3fl0qQo", "types": ["street_address"]}], "routes": [{"bounds": {"northeast": {"lat": 37.575924, "lng": 129.0953841}, "southwest": {"lat": 35.233296, "lng": 126.939921}}, "copyrights": "Map data \u00a92021 TMap Mobility", "legs": [{"arrival_time": {"text": "\uc624\uc804 6:34", "time_zone": "Asia/Seoul", "value": 1640900056}, "departure_time": {"text": "\uc624\uc804 12:30", "time_zone": "Asia/Seoul", "value": 1640878246}, "distance": {"text": "335 km", "value": 335375}, "duration": {"text": "6\uc2dc\uac04 4\ubd84", "value": 21810}, "end_address": "\ub300\ud55c\ubbfc\uad6d \ubd80\uc0b0\uad11\uc5ed\uc2dc \uae08\uc815\uad6c \uc7a5\uc8041\ub3d9 441-5", "end_location": {"lat": 35.2338825, "lng": 129.0841857}, "start_address": "\ub300\ud55c\ubbfc\uad6d \uc11c\uc6b8\ud2b9\ubcc4\uc2dc \uc11c\ub300\ubb38\uad6c \uc2e0\ucd0c\ub3d9 \uc0b09-1", "start_location": {"lat": 37.567133, "lng": 126.939921}, "steps": [{"distance": {"text": "0.6 km", "value": 574}, "duration": {"text": "10\ubd84", "value": 575}, "end_location": {"lat": 37.56280599999999, "lng": 126.943474}, "html_instructions": "\uc774\ub300\ud6c4\ubb38\uae4c\uc9c0 \ub3c4\ubcf4", "polyline": {"points": "qihdFo}weW~YeU"}, "start_location": {"lat": 37.567133, "lng": 126.939921}, "steps": [{"distance": {"text": "0.6 km", "value": 574}, "duration": {"text": "10\ubd84", "value": 575}, "end_location": {"lat": 37.56280599999999, "lng": 126.943474}, "polyline": {"points": "qihdFo}weW~YeU"}, "start_location": {"lat": 37.567133, "lng": 126.939921}, "travel_mode": "WALKING"}], "travel_mode": "WALKING"}, {"distance": {"text": "5.5 km", "value": 5453}, "duration": {"text": "11\ubd84", "value": 644}, "end_location": {"lat": 37.558384, "lng": 126.973344}, "html_instructions": "\ubc84\uc2a4 \uc11c\uc6b8\uc5ed.YTN\ud589", "polyline": {"points": "qngdFusxeW@AAA{@kAyB}CaAmBm@i@sBkBgC{Bo@YgB_@iBkAeAu@sBoAeBkA[S[e@e@{@_BoGcDsL{CeLWw@QqAEk@B_CD_C@eDYoC]sBy@mC_AqAm@gASq@McAAa@?_@@g@FuKGaBMm@[g@}AcBuC_D]m@M]ESQcAY_DUi@oDuEkBaCUi@QqA@}AAMd@qIH}A?m@ZaFCgBB_AHeCN}@Xk@d@e@d@U~CCnAErFIlKC|@_@\\Uf@Ch@A|CKpFSlL?vDRt@P`C`@jEjAjGdB|@Tl@f@Th@Tr@\\Zj@ZnDjAnDdD"}, "start_location": {"lat": 37.56280599999999, "lng": 126.943474}, "transit_details": {"arrival_stop": {"location": {"lat": 37.558384, "lng": 126.973344}, "name": "\uc22d\ub840\ubb38"}, "arrival_time": {"text": "\uc624\uc804 1:06", "time_zone": "Asia/Seoul", "value": 1640880365}, "departure_stop": {"location": {"lat": 37.56280599999999, "lng": 126.943474}, "name": "\uc774\ub300\ud6c4\ubb38"}, "departure_time": {"text": "\uc624\uc804 12:55", "time_zone": "Asia/Seoul", "value": 1640879721}, "headsign": "\uc11c\uc6b8\uc5ed.YTN", "headway": 900, "line": {"agencies": [{"name": "\uacbd\uae30\ub3c4\ubc84\uc2a4\uc6b4\uc1a1\uc0ac\uc5c5\uc870\ud569", "url": "http://www.odsay.com/bus/Kyeonggi_Main.asp?CID=1&LMenu=1"}], "color": "#cf4900", "name": "\uacbd\uae30 \uad11\uc5ed\ubc84\uc2a4", "short_name": "M7111", "text_color": "#ffffff", "vehicle": {"icon": "//maps.gstatic.com/mapfiles/transit/iw2/6/bus2.png", "name": "\ubc84\uc2a4", "type": "BUS"}}, "num_stops": 3}, "travel_mode": "TRANSIT"}, {"distance": {"text": "48 m", "value": 48}, "duration": {"text": "1\ubd84", "value": 48}, "end_location": {"lat": 37.558008, "lng": 126.973626}, "html_instructions": "\uc22d\ub840\ubb38\uae4c\uc9c0 \ub3c4\ubcf4", "polyline": {"points": "{rfdFkn~eWhAy@"}, "start_location": {"lat": 37.558384, "lng": 126.973344}, "steps": [{"distance": {"text": "48 m", "value": 48}, "duration": {"text": "1\ubd84", "value": 48}, "end_location": {"lat": 37.558008, "lng": 126.973626}, "polyline": {"points": "{rfdFkn~eWhAy@"}, "start_location": {"lat": 37.558384, "lng": 126.973344}, "travel_mode": "WALKING"}], "travel_mode": "WALKING"}, {"distance": {"text": "10.0 km", "value": 9973}, "duration": {"text": "27\ubd84", "value": 1613}, "end_location": {"lat": 37.501682, "lng": 127.02576}, "html_instructions": "\ubc84\uc2a4 \uc7a5\uc9c0\uacf5\uc601\ucc28\uace0\uc9c0\ud589", "polyline": {"points": "qpfdFep~eW?AgEoDIE_@S?AuCw@g@UQYE_@B[N[NG|CPl@EXCdAYLGjCqA~@ShBBn@Mp@[l@Y@?l@UR@pAf@f@AZK\\c@bDqHd@_AROn@Mf@Bb@Gb@[zBqCh@iA\\y@P}@Aa@AW?AIqCRy@^w@jAqAdD_CfAYfEo@v@[hBeABA@?j@W`@EfDGl@KPUjBqDJ_@DK?AbAeIBk@C{A]iBE_ABs@Lm@bBaDd@m@d@_@d@Qp@W~@m@z@Ob@E|@DlAOx@]`@g@Va@Jq@BiE?_@?C@_AD]n@oB^wAXgDbBgD|@uAb@}@VsA?AJw@?_AGw@Ku@So@Yk@c@g@aFuGs@y@w@yAg@w@s@w@mCqBy@K{Eo@M?[@GBs@^t@v@b@DdEd@R@l@D|CXzCPtABn@Yj@q@j@eA`AgC?A^Sn@Gj@WtCa@lCe@nCi@r@Qd@On@Uz@[fAi@rBgA`@Oj@_@|@k@f@]\\[d@Yn@a@xHsF|BiAd@e@j@k@bDkCzA_AtDcCjA_A~BmBlCeCtDkD~K{J~AcB~DqDfE{DdAiAdBoAr@e@nB{Ar@SbC]x@EpAQfEq@xIsBzFwBnGmA~AUbDq@fAULCjAa@`_@oNzDyAt[wL"}, "start_location": {"lat": 37.558008, "lng": 126.973626}, "transit_details": {"arrival_stop": {"location": {"lat": 37.501682, "lng": 127.02576}, "name": "\uc9c0\ud558\ucca02\ud638\uc120\uac15\ub0a8\uc5ed"}, "arrival_time": {"text": "\uc624\uc804 1:42", "time_zone": "Asia/Seoul", "value": 1640882566}, "departure_stop": {"location": {"lat": 37.558008, "lng": 126.973626}, "name": "\uc22d\ub840\ubb38"}, "departure_time": {"text": "\uc624\uc804 1:15", "time_zone": "Asia/Seoul", "value": 1640880953}, "headsign": "\uc7a5\uc9c0\uacf5\uc601\ucc28\uace0\uc9c0", "headway": 540, "line": {"agencies": [{"name": "\uc11c\uc6b8\ud2b9\ubcc4\uc2dc\ubc84\uc2a4\uc6b4\uc1a1\uc0ac\uc5c5\uc870\ud569", "url": "http://www.odsay.com/Bus/Seoul_Main.asp?CID=1000&LMenu=1"}], "color": "#374ff2", "name": "\uc11c\uc6b8 \uac04\uc120\ubc84\uc2a4", "short_name": "402", "text_color": "#ffffff", "vehicle": {"icon": "//maps.gstatic.com/mapfiles/transit/iw2/6/bus2.png", "name": "\ubc84\uc2a4", "type": "BUS"}}, "num_stops": 13}, "travel_mode": "TRANSIT"}, {"distance": {"text": "39 m", "value": 39}, "duration": {"text": "1\ubd84", "value": 39}, "end_location": {"lat": 37.502, "lng": 127.025966}, "html_instructions": "\uc2e0\ub17c\ud604\uc5ed\uae4c\uc9c0 \ub3c4\ubcf4", "polyline": {"points": "op{cF_vhfW_Ai@"}, "start_location": {"lat": 37.501682, "lng": 127.02576}, "steps": [{"distance": {"text": "39 m", "value": 39}, "duration": {"text": "1\ubd84", "value": 39}, "end_location": {"lat": 37.502, "lng": 127.025966}, "polyline": {"points": "op{cF_vhfW_Ai@"}, "start_location": {"lat": 37.501682, "lng": 127.02576}, "travel_mode": "WALKING"}], "travel_mode": "WALKING"}, {"distance": {"text": "2.6 km", "value": 2615}, "duration": {"text": "5\ubd84", "value": 320}, "end_location": {"lat": 37.506297, "lng": 127.005212}, "html_instructions": "\ubc84\uc2a4 \uae40\ud3ec\ud55c\uac157\ub85c\ud589", "polyline": {"points": "or{cFiwhfWAC{HxCqBvAaCfAmHjC{DxAoUrI[RSh@Hz@z@jEvE`VfGhY?@|@bEzIjc@?B"}, "start_location": {"lat": 37.502, "lng": 127.025966}, "transit_details": {"arrival_stop": {"location": {"lat": 37.506297, "lng": 127.005212}, "name": "\uace0\uc18d\ud130\ubbf8\ub110"}, "arrival_time": {"text": "\uc624\uc804 1:51", "time_zone": "Asia/Seoul", "value": 1640883095}, "departure_stop": {"location": {"lat": 37.502, "lng": 127.025966}, "name": "\uc2e0\ub17c\ud604\uc5ed"}, "departure_time": {"text": "\uc624\uc804 1:46", "time_zone": "Asia/Seoul", "value": 1640882775}, "headsign": "\uae40\ud3ec\ud55c\uac157\ub85c", "line": {"agencies": [{"name": "\uacbd\uae30\ub3c4\ubc84\uc2a4\uc6b4\uc1a1\uc0ac\uc5c5\uc870\ud569", "url": "http://www.odsay.com/bus/Kyeonggi_Main.asp?CID=1&LMenu=1"}], "color": "#f22505", "name": "\uacbd\uae30 \uc9c1\ud589\uc88c\uc11d\ubc84\uc2a4", "short_name": "\uc774\uc74c2(\ud3c9\uc77c\uc6b4\ud589)", "text_color": "#ffffff", "vehicle": {"icon": "//maps.gstatic.com/mapfiles/transit/iw2/6/bus2.png", "name": "\ubc84\uc2a4", "type": "BUS"}}, "num_stops": 3}, "travel_mode": "TRANSIT"}, {"distance": {"text": "88 m", "value": 88}, "duration": {"text": "1\ubd84", "value": 88}, "end_location": {"lat": 37.50568, "lng": 127.005847}, "html_instructions": "\uc11c\uc6b8\uace0\uc18d\ubc84\uc2a4\ud130\ubbf8\ub110\uae4c\uc9c0 \ub3c4\ubcf4", "polyline": {"points": "km|cFqudfWzB_C"}, "start_location": {"lat": 37.506297, "lng": 127.005212}, "steps": [{"distance": {"text": "88 m", "value": 88}, "duration": {"text": "1\ubd84", "value": 88}, "end_location": {"lat": 37.50568, "lng": 127.005847}, "polyline": {"points": "km|cFqudfWzB_C"}, "start_location": {"lat": 37.506297, "lng": 127.005212}, "travel_mode": "WALKING"}], "travel_mode": "WALKING"}, {"distance": {"text": "310 km", "value": 309763}, "duration": {"text": "4\uc2dc\uac04 0\ubd84", "value": 14400}, "end_location": {"lat": 35.2847494, "lng": 129.0953841}, "html_instructions": "\ubc84\uc2a4 \ubd80\uc0b0\uc885\ud569\ubc84\uc2a4\ud130\ubbf8\ub110\ud589", "polyline": {"points": "oi|cFqydfWxwpLqbwK"}, "start_location": {"lat": 37.50568, "lng": 127.005847}, "transit_details": {"arrival_stop": {"location": {"lat": 35.2847494, "lng": 129.0953841}, "name": "\ubd80\uc0b0\uc885\ud569\ubc84\uc2a4\ud130\ubbf8\ub110"}, "arrival_time": {"text": "\uc624\uc804 6:00", "time_zone": "Asia/Seoul", "value": 1640898000}, "departure_stop": {"location": {"lat": 37.50568, "lng": 127.005847}, "name": "\uc11c\uc6b8\uace0\uc18d\ubc84\uc2a4\ud130\ubbf8\ub110"}, "departure_time": {"text": "\uc624\uc804 2:00", "time_zone": "Asia/Seoul", "value": 1640883600}, "headsign": "\ubd80\uc0b0\uc885\ud569\ubc84\uc2a4\ud130\ubbf8\ub110", "line": {"agencies": [{"name": "\uc804\uad6d\uace0\uc18d\ubc84\uc2a4\uc6b4\uc1a1\uc0ac\uc5c5\uc870\ud569", "url": "http://www.odsay.com/Express/?CID=1000&LMenu=4&Menu=1"}], "name": "\uc11c\uc6b8-\ubd80\uc0b0 \uace0\uc18d\ubc84\uc2a4(\uc2ec\uc57c\uc6b0\ub4f1)", "vehicle": {"icon": "//maps.gstatic.com/mapfiles/transit/iw2/6/bus2.png", "name": "\ubc84\uc2a4", "type": "BUS"}}, "num_stops": 1}, "travel_mode": "TRANSIT"}, {"distance": {"text": "0.1 km", "value": 145}, "duration": {"text": "2\ubd84", "value": 145}, "end_location": {"lat": 35.283739, "lng": 129.09436}, "html_instructions": "\ubd80\uc0b0\uc885\ud569\ud130\ubbf8\ub110(\ub178\ud3ec\uc5ed)\uae4c\uc9c0 \ub3c4\ubcf4", "polyline": {"points": "upjvEc}|rWhEjE"}, "start_location": {"lat": 35.2847494, "lng": 129.0953841}, "steps": [{"distance": {"text": "0.1 km", "value": 145}, "duration": {"text": "2\ubd84", "value": 145}, "end_location": {"lat": 35.283739, "lng": 129.09436}, "polyline": {"points": "upjvEc}|rWhEjE"}, "start_location": {"lat": 35.2847494, "lng": 129.0953841}, "travel_mode": "WALKING"}], "travel_mode": "WALKING"}, {"distance": {"text": "6.5 km", "value": 6536}, "duration": {"text": "22\ubd84", "value": 1300}, "end_location": {"lat": 35.233296, "lng": 129.085563}, "html_instructions": "\ubc84\uc2a4 \uac10\ub9cc2\ub3d9\ud589", "polyline": {"points": "kjjvEwv|rW?BB?jDv@zFnAfB`@tB`@B?l@JtAR|Ir@fLfA\\^Nb@BnHAXKNGR@THJLF?F@fB?@?zAB`ADtEFlBF`DPnDDv@DTHPFFBBvCAzAArCEbFEB?hAArAAdKGD?B?d@AfC?d@?ZHjBvBr@x@PFJHJE@?`@CREl@e@`Au@nA_Ar@m@RGNAPBD?`Fr@\\DB?`APPGTM^]~D{ENO`@Ib@IfB]^Wb@q@h@y@HWFi@@C@QPE|A?zDAvA?L?fB?XAB?`F?~C?v@@B?hG?lC@dEEB?R?jJEB?l@?xAAj@I`KwCbD{@d@@B?rAD~FR`@Lh@b@BBx@r@~HzGBBZVp@h@n@@rHAV@pF@B?fB?lBGr@C@?|@?tEKpCf@hCd@B@tF|@`Dh@?A"}, "start_location": {"lat": 35.283739, "lng": 129.09436}, "transit_details": {"arrival_stop": {"location": {"lat": 35.233296, "lng": 129.085563}, "name": "\ud604\ub300\uc544\ud30c\ud2b8"}, "arrival_time": {"text": "\uc624\uc804 6:31", "time_zone": "Asia/Seoul", "value": 1640899914}, "departure_stop": {"location": {"lat": 35.283739, "lng": 129.09436}, "name": "\ubd80\uc0b0\uc885\ud569\ud130\ubbf8\ub110(\ub178\ud3ec\uc5ed)"}, "departure_time": {"text": "\uc624\uc804 6:10", "time_zone": "Asia/Seoul", "value": 1640898614}, "headsign": "\uac10\ub9cc2\ub3d9", "headway": 420, "line": {"agencies": [{"name": "\ubd80\uc0b0\uad11\uc5ed\uc2dc\ubc84\uc2a4\uc6b4\uc1a1\uc0ac\uc5c5\uc870\ud569", "url": "http://www.odsay.com/Bus/Busan_Main.asp?CID=7000&LMenu=1"}], "color": "#374ff2", "name": "\ubd80\uc0b0 \uc77c\ubc18\ubc84\uc2a4", "short_name": "51", "text_color": "#ffffff", "vehicle": {"icon": "//maps.gstatic.com/mapfiles/transit/iw2/6/bus2.png", "name": "\ubc84\uc2a4", "type": "BUS"}}, "num_stops": 22}, "travel_mode": "TRANSIT"}, {"distance": {"text": "0.1 km", "value": 141}, "duration": {"text": "2\ubd84", "value": 142}, "end_location": {"lat": 35.2338825, "lng": 129.0841857}, "html_instructions": "\ub300\ud55c\ubbfc\uad6d \ubd80\uc0b0\uad11\uc5ed\uc2dc \uae08\uc815\uad6c \uc7a5\uc8041\ub3d9 441-5\uae4c\uc9c0 \ub3c4\ubcf4", "polyline": {"points": "co`vEw_{rWsBpG"}, "start_location": {"lat": 35.233296, "lng": 129.085563}, "steps": [{"distance": {"text": "0.1 km", "value": 141}, "duration": {"text": "2\ubd84", "value": 142}, "end_location": {"lat": 35.2338825, "lng": 129.0841857}, "polyline": {"points": "co`vEw_{rWsBpG"}, "start_location": {"lat": 35.233296, "lng": 129.085563}, "travel_mode": "WALKING"}], "travel_mode": "WALKING"}], "traffic_speed_entry": [], "via_waypoint": []}], "overview_polyline": {"points": "qihdFo}weW`ZgU}@mAyB}CaAmBaDuCgC{Bo@YgB_@iBkAeAu@sBoAaC_BaAaB_BoGcDsLsD}MW}BH_G@eDYoC]sBy@mC_AqAm@gASq@McAAaAH}LGaBMm@[g@}AcBuC_D]m@Sq@QcAY_DUi@oDuEkBaCUi@QqA@}AAMd@qIH}A?m@ZaFCgBLeEN}@Xk@d@e@d@UnFIrFIlKC|@_@\\UpAEnK_@lL?vDRvDr@vMpD|@Tl@f@j@|A\\Zj@ZnDjAnDdDhAy@gEqDi@YuCy@g@UQYE_@B[N[NG|CPl@EXCdAYLGjCqA~@ShBBn@M~Au@n@UR@pAf@f@AZK\\c@bDqHd@_AROn@Mf@Bb@Gb@[zBqCh@iA\\y@P}@Cy@IsCRy@^w@jAqAdD_CfAYfEo@v@[hBeADAj@W`@EfDGl@K|BgEPk@bAgIBk@C{A]iBE_ABs@Lm@bBaDd@m@d@_@d@Qp@W~@m@z@Ob@E|@DlAOx@]`@g@Va@Jq@BiE?c@@_AD]n@oB^wAXgDbBgD|@uAb@}@VuAJw@?_ASmBSo@Yk@eG}Hs@y@w@yAg@w@s@w@mCqBy@K{Eo@i@@{@b@t@v@b@DxEf@jE^zCPtABn@Yj@q@j@eA`AgC?A^Sn@Gj@WbHgAbE{@tAe@z@[fAi@rBgA`@OhBkAdAy@d@YhJuG|BiAd@e@j@k@bDkCpGcEjEmDbIqH~K{J~AcBfKmJdAiAdBoAr@e@nB{Ar@SbC]jCWfEq@xIsBzFwBnGmA~AUbDq@tAYla@qOpa@qO_Ai@AC{HxCqBvAaCfAiNdFoUrI[RSh@Hz@rGl\\fGjY|@bEzIjc@?BzB_CxwpLqbwKhEnEnDv@bJpBxB`@bC^|Ir@fLfA\\^Nb@@hIKNGR@THJLF?F@hBHrJNnGVfFNf@JJjRO~UMd@?ZH~CpD\\PLEt@InB{AbCmBRG`@@fFr@`@D`APPGt@k@nEkFdASfB]^WlAkBHWFi@BUPE|A?rGAtB?~KArMBhQKp@?xAAj@IdPsEh@@rIX`@LfLvJ^Zp@h@n@@jI?tF@fB?lBGt@CrGKzGlAxF~@`Dh@?AsBpG"}, "summary": "", "warnings": ["\ub3c4\ubcf4 \uacbd\ub85c\ub294 \ubca0\ud0c0 \uc11c\ube44\uc2a4\uc785\ub2c8\ub2e4. \uc8fc\uc758 \u2013 \uc774 \uacbd\ub85c\uc5d0\ub294 \uc778\ub3c4 \ub610\ub294 \ubcf4\ud589 \uacbd\ub85c\uac00 \ub204\ub77d\ub418\uc5c8\uc744 \uc218\ub3c4 \uc788\uc2b5\ub2c8\ub2e4."], "waypoint_order": []}], "status": "OK"}