{"geocoded_waypoints": [{"geocoder_status": "OK", "place_id": "ChIJp5AB8VmhfDUR-Yi49Nm1wIs", "types": ["street_address"]}, {"geocoder_status": "OK", "place_id": "ChIJCSaHcY2YfDURp_7F6syXUh8", "types": ["street_address"]}], "routes": [{"bounds": {"northeast": {"lat": 37.5723499, "lng": 127.029154}, "southwest": {"lat": 37.4947833, "lng": 126.931584}}, "copyrights": "Map data \u00a92021 TMap Mobility", "legs": [{"arrival_time": {"text": "\uc624\ud6c4 11:30", "time_zone": "Asia/Seoul", "value": 1640701843}, "departure_time": {"text": "\uc624\ud6c4 10:39", "time_zone": "Asia/Seoul", "value": 1640698756}, "distance": {"text": "16.2 km", "value": 16197}, "duration": {"text": "51\ubd84", "value": 3087}, "end_address": "\ub300\ud55c\ubbfc\uad6d \uc11c\uc6b8\ud2b9\ubcc4\uc2dc \uc11c\ub300\ubb38\uad6c \uc5f0\ud76c\ub3d9 \uc0b050-1", "end_location": {"lat": 37.564546, "lng": 126.935151}, "start_address": "\ub300\ud55c\ubbfc\uad6d \uc11c\uc6b8\ud2b9\ubcc4\uc2dc \uac15\ub0a8\uad6c \uc5ed\uc0bc1\ub3d9 825-15", "start_location": {"lat": 37.4977353, "lng": 127.0284247}, "steps": [{"distance": {"text": "0.3 km", "value": 333}, "duration": {"text": "6\ubd84", "value": 334}, "end_location": {"lat": 37.4947833, "lng": 127.0290918}, "html_instructions": "\uc2e0\ubd84\ub2f9\uc120\uac15\ub0a8\uc5ed\uae4c\uc9c0 \ub3c4\ubcf4", "polyline": {"points": "{wzcFsfifWnQeC"}, "start_location": {"lat": 37.4977353, "lng": 127.0284247}, "steps": [{"distance": {"text": "0.3 km", "value": 333}, "duration": {"text": "6\ubd84", "value": 334}, "end_location": {"lat": 37.4947833, "lng": 127.0290918}, "polyline": {"points": "{wzcFsfifWnQeC"}, "start_location": {"lat": 37.4977353, "lng": 127.0284247}, "travel_mode": "WALKING"}], "travel_mode": "WALKING"}, {"distance": {"text": "15.5 km", "value": 15468}, "duration": {"text": "39\ubd84", "value": 2311}, "end_location": {"lat": 37.562374, "lng": 126.931584}, "html_instructions": "\ubc84\uc2a4 \uc0c1\uc554\ucc28\uace0\uc9c0\ud589", "polyline": {"points": "kezcFyjifWCKIBqFfBG@w\\tMA?]LeBf@e@P_Bj@wXdK{DxA}M`FmPdGmA`@aAh@eDn@y[hG}Gd@u@FyCr@eCx@oCxAmBtAkBbBeDbD{BrBiDbDeLlKkE`E}EhEkA~@kGbEiBnA{BlBgDrB_DpBiDhCs@d@gC|AA?{BvA_Bz@{B`BeFlAoEn@_AZ}@r@g@f@k@fAk@~A_@z@y@fAk@ZS?uAp@oAx@cLpG{F`DyGjDqHzDqGpDmInE}NdIoB~@sAz@eBv@cBPaALy@LyC\\aAf@y@f@m@l@s@bA_@~@kApE]t@y@dAs@\\e@FeHv@y@R}@b@mElCs@Xg@Ju@Bw@DqDF{@DeIIoCEMA{BQeAAA?yA@GFGNA\\@zF?@@lD?rM?dI?zBAvO?@@lL?dCY`L?BAfCDtARnAf@nA~C`FRZdCxDr@t@vD|Dh@l@B@BDvBtB@b@DtAs@t@mF`F_Ax@i@d@k@`@sGrGmBtBqGhH{@bAQf@KVCb@L`@lAzA@BVf@^fAb@zBJbBBbABnGAlBLvAZhB~Il]r@vBjAlBjA`AdXtQ|EfGB@|@lA|IpLt@rAp@hAl@bANj@V`AN~A?B?XCxB?FFpJInD?BKv@]xCe@vBmB|C}BhCsA~AGFk@r@@B"}, "start_location": {"lat": 37.4947833, "lng": 127.0290918}, "transit_details": {"arrival_stop": {"location": {"lat": 37.562374, "lng": 126.931584}, "name": "\uc11c\ub300\ubb38\uc6b0\uccb4\uad6d"}, "arrival_time": {"text": "\uc624\ud6c4 11:24", "time_zone": "Asia/Seoul", "value": 1640701446}, "departure_stop": {"location": {"lat": 37.4947833, "lng": 127.0290918}, "name": "\uc2e0\ubd84\ub2f9\uc120\uac15\ub0a8\uc5ed"}, "departure_time": {"text": "\uc624\ud6c4 10:45", "time_zone": "Asia/Seoul", "value": 1640699135}, "headsign": "\uc0c1\uc554\ucc28\uace0\uc9c0", "headway": 600, "line": {"agencies": [{"name": "\uc11c\uc6b8\ud2b9\ubcc4\uc2dc\ubc84\uc2a4\uc6b4\uc1a1\uc0ac\uc5c5\uc870\ud569", "url": "http://www.odsay.com/Bus/Seoul_Main.asp?CID=1000&LMenu=1"}], "color": "#374ff2", "name": "\uc11c\uc6b8 \uac04\uc120\ubc84\uc2a4", "short_name": "470", "text_color": "#ffffff", "vehicle": {"icon": "//maps.gstatic.com/mapfiles/transit/iw2/6/bus2.png", "name": "\ubc84\uc2a4", "type": "BUS"}}, "num_stops": 20}, "travel_mode": "TRANSIT"}, {"distance": {"text": "0.4 km", "value": 396}, "duration": {"text": "7\ubd84", "value": 397}, "end_location": {"lat": 37.564546, "lng": 126.935151}, "html_instructions": "\ub300\ud55c\ubbfc\uad6d \uc11c\uc6b8\ud2b9\ubcc4\uc2dc \uc11c\ub300\ubb38\uad6c \uc5f0\ud76c\ub3d9 \uc0b050-1\uae4c\uc9c0 \ub3c4\ubcf4", "polyline": {"points": "ykgdFkiveWsLiU"}, "start_location": {"lat": 37.562374, "lng": 126.931584}, "steps": [{"distance": {"text": "0.4 km", "value": 396}, "duration": {"text": "7\ubd84", "value": 397}, "end_location": {"lat": 37.564546, "lng": 126.935151}, "polyline": {"points": "ykgdFkiveWsLiU"}, "start_location": {"lat": 37.562374, "lng": 126.931584}, "travel_mode": "WALKING"}], "travel_mode": "WALKING"}], "traffic_speed_entry": [], "via_waypoint": []}], "overview_polyline": {"points": "{wzcFsfifWnQeCCK{FjB_^dNkCx@w[pLySzH{RfHaAh@eDn@y[hG}Gd@u@FyCr@eCx@oCxAmBtAkBbBeDbD{BrBiDbDeLlKkE`E}EhEkA~@kGbEiBnA{BlBgIdFiDhCs@d@iC|A{BvA_Bz@{B`BeFlAoEn@_AZ}@r@g@f@k@fAk@~A_@z@y@fAk@ZS?uAp@oAx@_TrLkQfJqGpDmInE}NdIoB~@sAz@eBv@eD^sEj@{BnAm@l@s@bA_@~@kApE]t@y@dAs@\\e@FeHv@y@R}@b@mElCs@Xg@Ju@Bw@DmFLuMOiCSgAAyA@GFGNA\\@|F@`SAz]@rPYdLAfCDtARnAf@nArD|FdCxDr@t@`FjFFFvBtB@b@DtAs@t@mHzGuAfAsGrGmBtBmIlJ]~@Cb@L`@nA~AVf@^fAb@zBJbBFrIAlBLvAZhB~Il]r@vBjAlBjA`AdXtQ`FhGzK~NfB|Cl@bANj@V`AN~A?\\C`CFpJInDKz@]xCe@vBmB|C}BhC{AfBk@r@@BsLiU"}, "summary": "", "warnings": ["\ub3c4\ubcf4 \uacbd\ub85c\ub294 \ubca0\ud0c0 \uc11c\ube44\uc2a4\uc785\ub2c8\ub2e4. \uc8fc\uc758 \u2013 \uc774 \uacbd\ub85c\uc5d0\ub294 \uc778\ub3c4 \ub610\ub294 \ubcf4\ud589 \uacbd\ub85c\uac00 \ub204\ub77d\ub418\uc5c8\uc744 \uc218\ub3c4 \uc788\uc2b5\ub2c8\ub2e4."], "waypoint_order": []}], "status": "OK"}